[{"typeId":"2","typeName":"公有收費停車場","id":"1","code":"B00001","name":"海安路地下停車場","zoneId":"1","zone":"中西區","address":"台南市中西區海安路188號B1","largeCar":0,"car":61,"carDis":0,"carWoman":0,"carGreen":0,"moto":0,"motoDis":0,"largeCar_total":0,"car_total":932,"carDis_total":0,"carWoman_total":0,"carGreen_total":0,"moto_total":0,"motoDis_total":0,"chargeTime":"","chargeFee":"","update_time":"2018-06-18 01:20:27","lnglat":"22.991501,120.195621"},{"typeId":"1","typeName":"公有免費停車場","id":"2","code":"A00010","name":"安億路路外停車場 ","zoneId":"5","zone":"安平區","address":"安平區安億路與慶平路路口東南側","largeCar":0,"car":416,"carDis":0,"carWoman":0,"carGreen":0,"moto":0,"motoDis":0,"largeCar_total":0,"car_total":419,"carDis_total":0,"carWoman_total":0,"carGreen_total":0,"moto_total":0,"motoDis_total":0,"chargeTime":"早上00:00至下午24:00","chargeFee":"公有免費停車場","update_time":"2018-06-18 01:20:06","lnglat":"22.997425,120.164037"},{"typeId":"1","typeName":"公有免費停車場","id":"3","code":"A00020","name":"樹屋停車場","zoneId":"5","zone":"安平區","address":"樹屋(履鋒新村)臨時停車場","largeCar":0,"car":176,"carDis":0,"carWoman":0,"carGreen":0,"moto":0,"motoDis":0,"largeCar_total":0,"car_total":200,"carDis_total":0,"carWoman_total":0,"carGreen_total":0,"moto_total":0,"motoDis_total":0,"chargeTime":"早上00:00至下午24:00","chargeFee":"公有免費停車場","update_time":"2018-06-18 01:20:07","lnglat":"23.003582,120.159792"},{"typeId":"1","typeName":"公有免費停車場","id":"4","code":"A00030","name":"遊憩碼頭停車場","zoneId":"5","zone":"安平區","address":"安平區運河路(觀景台、金城里活動中心旁)","largeCar":0,"car":89,"carDis":0,"carWoman":0,"carGreen":0,"moto":0,"motoDis":0,"largeCar_total":0,"car_total":117,"carDis_total":0,"carWoman_total":0,"carGreen_total":0,"moto_total":0,"motoDis_total":0,"chargeTime":"早上00:00至下午24:00","chargeFee":"公有免費停車場","update_time":"2018-06-18 01:20:06","lnglat":"22.996402,120.159702"},{"typeId":"2","typeName":"公有收費停車場","id":"5","code":"A00041","name":"水景公園停車場(交工科)","zoneId":"5","zone":"安平區","address":"安平區安北路水景公園旁","largeCar":0,"car":111,"carDis":0,"carWoman":0,"carGreen":0,"moto":0,"motoDis":0,"largeCar_total":0,"car_total":138,"carDis_total":0,"carWoman_total":0,"carGreen_total":0,"moto_total":0,"motoDis_total":0,"chargeTime":"早上00:00至下午24:00","chargeFee":"公有收費停車場","update_time":"2018-06-18 01:20:06","lnglat":"22.999508,120.157948"},{"typeId":"2","typeName":"公有收費停車場","id":"6","code":"A00051","name":"崇善路龍山停車場","zoneId":"2","zone":"東區","address":"台南市東區崇善路51號","largeCar":0,"car":105,"carDis":0,"carWoman":0,"carGreen":0,"moto":0,"motoDis":0,"largeCar_total":0,"car_total":158,"carDis_total":0,"carWoman_total":0,"carGreen_total":0,"moto_total":0,"motoDis_total":0,"chargeTime":"","chargeFee":"","update_time":"2018-06-18 01:20:08","lnglat":"22.982593,120.221534"},{"typeId":"2","typeName":"公有收費停車場","id":"7","code":"A00061","name":"東光路地下停車場","zoneId":"2","zone":"東區","address":"台南市東區東光路一段76號","largeCar":0,"car":90,"carDis":0,"carWoman":0,"carGreen":0,"moto":0,"motoDis":0,"largeCar_total":0,"car_total":252,"carDis_total":0,"carWoman_total":0,"carGreen_total":0,"moto_total":0,"motoDis_total":0,"chargeTime":"24小時","chargeFee":"07~23:每小時20元,23~07:每小時10元","update_time":"2018-06-18 01:20:37","lnglat":"22.992491,120.231296"},{"typeId":"2","typeName":"公有收費停車場","id":"11","code":"A00101","name":"南瀛綠都心公園地下停車場","zoneId":"25","zone":"新營區","address":"台南市新營區中正路23-1號","largeCar":0,"car":157,"carDis":0,"carWoman":0,"carGreen":0,"moto":0,"motoDis":0,"largeCar_total":0,"car_total":296,"carDis_total":0,"carWoman_total":0,"carGreen_total":0,"moto_total":0,"motoDis_total":0,"chargeTime":"","chargeFee":"","update_time":"2018-06-18 01:19:54","lnglat":"23.309726,120.316173"},{"typeId":"2","typeName":"公有收費停車場","id":"12","code":"B00002","name":"大宏社區公園停車場","zoneId":"25","zone":"新營區","address":"台南市新營區三民段一地號","largeCar":0,"car":27,"carDis":0,"carWoman":0,"carGreen":0,"moto":0,"motoDis":0,"largeCar_total":0,"car_total":28,"carDis_total":0,"carWoman_total":0,"carGreen_total":0,"moto_total":0,"motoDis_total":0,"chargeTime":"","chargeFee":"","update_time":"2018-06-18 01:16:58","lnglat":"23.307886,120.317136"},{"typeId":"2","typeName":"公有收費停車場","id":"13","code":"A00111","name":"公園南路停車場","zoneId":"4","zone":"北區","address":"台南市北區海安路3段與公園南路口","largeCar":0,"car":72,"carDis":0,"carWoman":0,"carGreen":0,"moto":0,"motoDis":0,"largeCar_total":0,"car_total":230,"carDis_total":0,"carWoman_total":0,"carGreen_total":0,"moto_total":0,"motoDis_total":0,"chargeTime":"24小時","chargeFee":"小型車10元／半小時；大型車20元／半小時","update_time":"2018-06-18 01:18:01","lnglat":"23.002911,120.200498"},{"typeId":"2","typeName":"公有收費停車場","id":"14","code":"A00131","name":"榮譽街停車場","zoneId":"2","zone":"東區","address":"台南市東區榮譽街","largeCar":0,"car":204,"carDis":0,"carWoman":0,"carGreen":0,"moto":0,"motoDis":0,"largeCar_total":0,"car_total":352,"carDis_total":0,"carWoman_total":0,"carGreen_total":0,"moto_total":0,"motoDis_total":0,"chargeTime":"","chargeFee":"","update_time":"2018-06-18 01:18:49","lnglat":"22.976591, 120.219439"},{"typeId":"2","typeName":"公有收費停車場","id":"15","code":"A00141","name":"臺南萬昌街停車場","zoneId":"1","zone":"中西區","address":"台南市中西區萬昌街與青年路226巷口","largeCar":0,"car":9,"carDis":0,"carWoman":0,"carGreen":0,"moto":0,"motoDis":0,"largeCar_total":0,"car_total":22,"carDis_total":0,"carWoman_total":0,"carGreen_total":0,"moto_total":0,"motoDis_total":0,"chargeTime":"","chargeFee":"","update_time":"2018-06-18 01:20:23","lnglat":"22.991078, 120.210567"},{"typeId":"2","typeName":"公有收費停車場","id":"16","code":"A00151","name":"臺南環河街停車場","zoneId":"1","zone":"中西區","address":"台南市中西區環河街26號旁","largeCar":0,"car":22,"carDis":0,"carWoman":0,"carGreen":0,"moto":0,"motoDis":0,"largeCar_total":0,"car_total":22,"carDis_total":0,"carWoman_total":0,"carGreen_total":0,"moto_total":0,"motoDis_total":0,"chargeTime":"","chargeFee":"","update_time":"2018-06-18 01:20:35","lnglat":"22.992542, 120.192008"},{"typeId":"2","typeName":"公有收費停車場","id":"17","code":"A00161","name":"臺南客家文化會館停車場","zoneId":"3","zone":"南區","address":"台南市南區夏林路4號客家文化會館旁","largeCar":0,"car":21,"carDis":0,"carWoman":0,"carGreen":0,"moto":0,"motoDis":0,"largeCar_total":0,"car_total":28,"carDis_total":0,"carWoman_total":0,"carGreen_total":0,"moto_total":0,"motoDis_total":0,"chargeTime":"","chargeFee":"","update_time":"2018-06-18 01:16:10","lnglat":"22.985470, 120.194533"},{"typeId":"2","typeName":"公有收費停車場","id":"60","code":"A00511","name":"民生路停車場","zoneId":"1","zone":"中西區","address":"中西區民生路二段400巷西側(原警察局拖吊場)","largeCar":0,"car":71,"carDis":0,"carWoman":0,"carGreen":0,"moto":0,"motoDis":0,"largeCar_total":0,"car_total":124,"carDis_total":0,"carWoman_total":0,"carGreen_total":0,"moto_total":0,"motoDis_total":0,"chargeTime":"","chargeFee":"","update_time":"2018-06-18 01:17:47","lnglat":"22.997837,120.188128"},{"typeId":"2","typeName":"公有收費停車場","id":"62","code":"A00531","name":"東橋八街停車場","zoneId":"7","zone":"永康區","address":"永康區東橋八街與東橋三路口","largeCar":0,"car":47,"carDis":0,"carWoman":0,"carGreen":0,"moto":0,"motoDis":0,"largeCar_total":0,"car_total":91,"carDis_total":0,"carWoman_total":0,"carGreen_total":0,"moto_total":0,"motoDis_total":0,"chargeTime":"","chargeFee":"","update_time":"2018-06-18 01:16:37","lnglat":"23.021002,120.233932"},{"typeId":"2","typeName":"公有收費停車場","id":"63","code":"A00541","name":"體育之心路外停車場 ","zoneId":"3","zone":"南區","address":"南區南門路市立體育場西側","largeCar":0,"car":110,"carDis":0,"carWoman":0,"carGreen":0,"moto":0,"motoDis":0,"largeCar_total":0,"car_total":115,"carDis_total":0,"carWoman_total":0,"carGreen_total":0,"moto_total":0,"motoDis_total":0,"chargeTime":"","chargeFee":"","update_time":"2018-06-18 01:18:02","lnglat":"22.978296,120.204722"},{"typeId":"2","typeName":"公有收費停車場","id":"64","code":"A00551","name":"水交社路外停車場 ","zoneId":"3","zone":"南區","address":"南區南門路與興中街路口","largeCar":0,"car":67,"carDis":0,"carWoman":0,"carGreen":0,"moto":0,"motoDis":0,"largeCar_total":0,"car_total":62,"carDis_total":0,"carWoman_total":0,"carGreen_total":0,"moto_total":0,"motoDis_total":0,"chargeTime":"","chargeFee":"","update_time":"2018-06-18 01:18:02","lnglat":"22.979519,120.203603"},{"typeId":"2","typeName":"公有收費停車場","id":"65","code":"A00561","name":"新化廣停二停車場","zoneId":"9","zone":"新化區","address":"新化區中正路498號","largeCar":0,"car":30,"carDis":0,"carWoman":0,"carGreen":0,"moto":0,"motoDis":0,"largeCar_total":0,"car_total":57,"carDis_total":0,"carWoman_total":0,"carGreen_total":0,"moto_total":0,"motoDis_total":0,"chargeTime":"","chargeFee":"","update_time":"2018-06-18 01:16:02","lnglat":"23.038083,120.307251"},{"typeId":"2","typeName":"公有收費停車場","id":"66","code":"A00571","name":"北園公兒23路外停車場 ","zoneId":"4","zone":"北區","address":"北區北園街114巷","largeCar":0,"car":0,"carDis":0,"carWoman":0,"carGreen":0,"moto":0,"motoDis":0,"largeCar_total":0,"car_total":114,"carDis_total":0,"carWoman_total":0,"carGreen_total":0,"moto_total":0,"motoDis_total":0,"chargeTime":"","chargeFee":"","update_time":"2018-06-15 19:41:00","lnglat":"23.012557,120.224916"},{"typeId":"2","typeName":"公有收費停車場","id":"67","code":"A00581","name":"大興公園停車場","zoneId":"4","zone":"北區","address":"北區文賢路與大興街口(好市多後方)","largeCar":0,"car":124,"carDis":0,"carWoman":0,"carGreen":0,"moto":0,"motoDis":0,"largeCar_total":0,"car_total":164,"carDis_total":0,"carWoman_total":0,"carGreen_total":0,"moto_total":0,"motoDis_total":0,"chargeTime":"","chargeFee":"","update_time":"2018-06-18 01:16:02","lnglat":"23.011473,120.192454"},{"typeId":"2","typeName":"公有收費停車場","id":"68","code":"A00591","name":"大豐公園停車場","zoneId":"4","zone":"北區","address":"北區武聖路與和緯路4段路口西北側","largeCar":0,"car":1,"carDis":0,"carWoman":0,"carGreen":0,"moto":0,"motoDis":0,"largeCar_total":0,"car_total":21,"carDis_total":0,"carWoman_total":0,"carGreen_total":0,"moto_total":0,"motoDis_total":0,"chargeTime":"","chargeFee":"","update_time":"2018-06-18 00:19:36","lnglat":"23.008078,120.187522"},{"typeId":"2","typeName":"公有收費停車場","id":"69","code":"A00601","name":"停2路外停車場 ","zoneId":"5","zone":"安平區","address":"安平區建平16街近中華西路南、北兩側","largeCar":0,"car":33,"carDis":0,"carWoman":0,"carGreen":0,"moto":0,"motoDis":0,"largeCar_total":0,"car_total":168,"carDis_total":0,"carWoman_total":0,"carGreen_total":0,"moto_total":0,"motoDis_total":0,"chargeTime":"","chargeFee":"","update_time":"2018-06-18 01:18:02","lnglat":"22.996532,120.185642"},{"typeId":"2","typeName":"公有收費停車場","id":"70","code":"A00611","name":"林默娘停車場","zoneId":"5","zone":"安平區","address":"安平區安億路林默娘公園旁","largeCar":0,"car":192,"carDis":0,"carWoman":0,"carGreen":0,"moto":0,"motoDis":0,"largeCar_total":0,"car_total":193,"carDis_total":0,"carWoman_total":0,"carGreen_total":0,"moto_total":0,"motoDis_total":0,"chargeTime":"","chargeFee":"","update_time":"2018-06-18 01:18:03","lnglat":"22.992392,120.156916"},{"typeId":"2","typeName":"公有收費停車場","id":"71","code":"A00621","name":"港濱停車場(第一區)","zoneId":"5","zone":"安平區","address":"安平區安億路與平豐路路口西北側","largeCar":0,"car":44,"carDis":0,"carWoman":0,"carGreen":0,"moto":0,"motoDis":0,"largeCar_total":0,"car_total":38,"carDis_total":0,"carWoman_total":0,"carGreen_total":0,"moto_total":0,"motoDis_total":0,"chargeTime":"","chargeFee":"","update_time":"2018-06-18 01:18:03","lnglat":"22.994967,120.163398"},{"typeId":"2","typeName":"公有收費停車場","id":"72","code":"A00631","name":"億載停車場","zoneId":"5","zone":"安平區","address":"安平區永華路2段與光州路路口西南側","largeCar":0,"car":96,"carDis":0,"carWoman":0,"carGreen":0,"moto":0,"motoDis":0,"largeCar_total":0,"car_total":107,"carDis_total":0,"carWoman_total":0,"carGreen_total":0,"moto_total":0,"motoDis_total":0,"chargeTime":"","chargeFee":"","update_time":"2018-06-18 01:18:03","lnglat":"22.991197,120.158474"},{"typeId":"2","typeName":"公有收費停車場","id":"73","code":"A00641","name":"水景停車場","zoneId":"5","zone":"安平區","address":"安平區安北路水景公園旁","largeCar":0,"car":136,"carDis":0,"carWoman":0,"carGreen":0,"moto":0,"motoDis":0,"largeCar_total":0,"car_total":138,"carDis_total":0,"carWoman_total":0,"carGreen_total":0,"moto_total":0,"motoDis_total":0,"chargeTime":"","chargeFee":"","update_time":"2018-06-18 01:18:03","lnglat":"22.999480,120.158030"},{"typeId":"1","typeName":"公有免費停車場","id":"93","code":"A00840","name":"怡平停九免費臨時停車場 ","zoneId":"5","zone":"安平區","address":"安平區怡平路、永華6街口","largeCar":0,"car":5,"carDis":0,"carWoman":0,"carGreen":0,"moto":0,"motoDis":0,"largeCar_total":0,"car_total":37,"carDis_total":0,"carWoman_total":0,"carGreen_total":0,"moto_total":0,"motoDis_total":0,"chargeTime":"","chargeFee":"","update_time":"2018-06-18 01:18:03","lnglat":"22.993102,120.176987"},{"typeId":"1","typeName":"公有免費停車場","id":"94","code":"A00850","name":"育平9街公有停車場(停10) ","zoneId":"5","zone":"安平區","address":"安平區國平路、育平9街口","largeCar":0,"car":2,"carDis":0,"carWoman":0,"carGreen":0,"moto":0,"motoDis":0,"largeCar_total":0,"car_total":76,"carDis_total":0,"carWoman_total":0,"carGreen_total":0,"moto_total":0,"motoDis_total":0,"chargeTime":"","chargeFee":"","update_time":"2018-05-03 14:58:52","lnglat":"22.995235,120.171545"},{"typeId":"1","typeName":"公有免費停車場","id":"95","code":"A00860","name":"運河路(停3)","zoneId":"5","zone":"安平區","address":"安平區運河路(觀景台、金城里活動中心旁)","largeCar":0,"car":54,"carDis":0,"carWoman":0,"carGreen":0,"moto":0,"motoDis":0,"largeCar_total":0,"car_total":117,"carDis_total":0,"carWoman_total":0,"carGreen_total":0,"moto_total":0,"motoDis_total":0,"chargeTime":"","chargeFee":"","update_time":"2018-06-18 01:18:03","lnglat":"22.997908,120.160811"},{"typeId":"1","typeName":"公有免費停車場","id":"96","code":"A00870","name":"文平路與建平五街免費臨時停車場 ","zoneId":"5","zone":"安平區","address":"安平區文平路、建平五街口","largeCar":0,"car":0,"carDis":0,"carWoman":0,"carGreen":0,"moto":0,"motoDis":0,"largeCar_total":0,"car_total":67,"carDis_total":0,"carWoman_total":0,"carGreen_total":0,"moto_total":0,"motoDis_total":0,"chargeTime":"","chargeFee":"","update_time":"2018-06-17 22:40:36","lnglat":"22.987782,120.177894"},{"typeId":"2","typeName":"公有收費停車場","id":"97","code":"A00880","name":"龍山里臨時停車場(第一區) ","zoneId":"2","zone":"東區","address":"龍山里第一區","largeCar":0,"car":6,"carDis":0,"carWoman":0,"carGreen":0,"moto":0,"motoDis":0,"largeCar_total":0,"car_total":24,"carDis_total":0,"carWoman_total":0,"carGreen_total":0,"moto_total":0,"motoDis_total":0,"chargeTime":"","chargeFee":"","update_time":"2018-06-18 01:18:03","lnglat":"22.984129,120.220095"},{"typeId":"2","typeName":"公有收費停車場","id":"98","code":"A00890","name":"龍山里臨時停車場(第二區) ","zoneId":"2","zone":"東區","address":"龍山里第二區","largeCar":0,"car":0,"carDis":0,"carWoman":0,"carGreen":0,"moto":0,"motoDis":0,"largeCar_total":0,"car_total":49,"carDis_total":0,"carWoman_total":0,"carGreen_total":0,"moto_total":0,"motoDis_total":0,"chargeTime":"","chargeFee":"","update_time":"2018-06-09 07:20:34","lnglat":"22.984527,120.219863"},{"typeId":"1","typeName":"公有免費停車場","id":"99","code":"A00900","name":"本原街3段(停1) ","zoneId":"5","zone":"安平區","address":"本原街3段、智安三街口(本淵寮公有零售市場東側)","largeCar":0,"car":0,"carDis":0,"carWoman":0,"carGreen":0,"moto":0,"motoDis":0,"largeCar_total":0,"car_total":40,"carDis_total":0,"carWoman_total":0,"carGreen_total":0,"moto_total":0,"motoDis_total":0,"chargeTime":"","chargeFee":"","update_time":"2018-06-16 15:33:35","lnglat":"23.053050,120.177516"},{"typeId":"1","typeName":"公有免費停車場","id":"100","code":"A00910","name":"安順里臨時免費公有停車場 ","zoneId":"6","zone":"安南區","address":"安南區總安街1段、育安街口","largeCar":0,"car":0,"carDis":0,"carWoman":0,"carGreen":0,"moto":0,"motoDis":0,"largeCar_total":0,"car_total":60,"carDis_total":0,"carWoman_total":0,"carGreen_total":0,"moto_total":0,"motoDis_total":0,"chargeTime":"","chargeFee":"","update_time":"2018-06-15 15:30:01","lnglat":"23.051369,120.215407"},{"typeId":"2","typeName":"公有收費停車場","id":"101","code":"A00920","name":"德光里活動中心停車場 ","zoneId":"2","zone":"東區","address":"德光里活動中心","largeCar":0,"car":10,"carDis":0,"carWoman":0,"carGreen":0,"moto":0,"motoDis":0,"largeCar_total":0,"car_total":0,"carDis_total":0,"carWoman_total":0,"carGreen_total":0,"moto_total":0,"motoDis_total":0,"chargeTime":"","chargeFee":"","update_time":"2018-06-18 01:18:03","lnglat":"22.979947,120.219334"},{"typeId":"1","typeName":"公有免費停車場","id":"102","code":"A00930","name":"東興路公有停車場 ","zoneId":"25","zone":"新營區","address":"新營區東興路、東興八街(衛生局旁)","largeCar":0,"car":1,"carDis":0,"carWoman":0,"carGreen":0,"moto":0,"motoDis":0,"largeCar_total":0,"car_total":64,"carDis_total":0,"carWoman_total":0,"carGreen_total":0,"moto_total":0,"motoDis_total":0,"chargeTime":"","chargeFee":"","update_time":"2018-06-13 14:28:06","lnglat":"23.315489,120.312910"},{"typeId":"1","typeName":"公有免費停車場","id":"103","code":"A00940","name":"民族路停車場","zoneId":"25","zone":"新營區","address":"新營長榮路一段515巷後方、大公街(防疫所旁)","largeCar":0,"car":57,"carDis":0,"carWoman":0,"carGreen":0,"moto":0,"motoDis":0,"largeCar_total":0,"car_total":69,"carDis_total":0,"carWoman_total":0,"carGreen_total":0,"moto_total":0,"motoDis_total":0,"chargeTime":"","chargeFee":"","update_time":"2018-06-18 01:18:03","lnglat":"23.318598,120.318561"},{"typeId":"1","typeName":"公有免費停車場","id":"104","code":"A00950","name":"西拉雅大道西側臨時停車場","zoneId":"36","zone":"新市區","address":"台鐵南科站前站","largeCar":0,"car":61,"carDis":0,"carWoman":0,"carGreen":0,"moto":0,"motoDis":0,"largeCar_total":0,"car_total":24,"carDis_total":0,"carWoman_total":0,"carGreen_total":0,"moto_total":0,"motoDis_total":0,"chargeTime":"","chargeFee":"","update_time":"2018-06-18 01:18:03","lnglat":"23.107819,120.301554"},{"typeId":"1","typeName":"公有免費停車場","id":"105","code":"A00960","name":"西拉雅大道東側臨時停車場 ","zoneId":"36","zone":"新市區","address":"台鐵南科站後站","largeCar":0,"car":3,"carDis":0,"carWoman":0,"carGreen":0,"moto":0,"motoDis":0,"largeCar_total":0,"car_total":18,"carDis_total":0,"carWoman_total":0,"carGreen_total":0,"moto_total":0,"motoDis_total":0,"chargeTime":"","chargeFee":"","update_time":"2018-06-18 01:18:03","lnglat":"23.107886,120.302675"},{"typeId":"1","typeName":"公有免費停車場","id":"106","code":"A00970","name":"南科特定區LM陽光電城 ","zoneId":"36","zone":"新市區","address":"新市區龍目井路(陽光大道與陽光南一路中間)北邊","largeCar":0,"car":68,"carDis":0,"carWoman":0,"carGreen":0,"moto":0,"motoDis":0,"largeCar_total":0,"car_total":99,"carDis_total":0,"carWoman_total":0,"carGreen_total":0,"moto_total":0,"motoDis_total":0,"chargeTime":"","chargeFee":"","update_time":"2018-06-18 01:18:04","lnglat":"23.109752,120.306256"},{"typeId":"1","typeName":"公有免費停車場","id":"107","code":"A00980","name":"湖美街60巷臨時免費公有停車場 ","zoneId":"1","zone":"中西區","address":"中西區湖美街60巷(西湖社區活動中心旁)","largeCar":0,"car":0,"carDis":0,"carWoman":0,"carGreen":0,"moto":0,"motoDis":0,"largeCar_total":0,"car_total":40,"carDis_total":0,"carWoman_total":0,"carGreen_total":0,"moto_total":0,"motoDis_total":0,"chargeTime":"","chargeFee":"","update_time":"2018-06-17 13:38:03","lnglat":"23.001373,120.181094"},{"typeId":"1","typeName":"公有免費停車場","id":"108","code":"A00990","name":"竹溪街公有停車場(停10) ","zoneId":"3","zone":"南區","address":"南區竹溪街、健康路一段133巷51弄口(何必館大樓旁)","largeCar":0,"car":8,"carDis":0,"carWoman":0,"carGreen":0,"moto":0,"motoDis":0,"largeCar_total":0,"car_total":25,"carDis_total":0,"carWoman_total":0,"carGreen_total":0,"moto_total":0,"motoDis_total":0,"chargeTime":"","chargeFee":"","update_time":"2018-06-18 01:16:04","lnglat":"22.980223,120.209880"},{"typeId":"1","typeName":"公有免費停車場","id":"109","code":"A01000","name":"大道停6路外停車場 ","zoneId":"4","zone":"北區","address":"北區北門路2段與和緯路1段路口西北側","largeCar":0,"car":0,"carDis":0,"carWoman":0,"carGreen":0,"moto":0,"motoDis":0,"largeCar_total":0,"car_total":64,"carDis_total":0,"carWoman_total":0,"carGreen_total":0,"moto_total":0,"motoDis_total":0,"chargeTime":"","chargeFee":"","update_time":"2018-06-14 08:23:08","lnglat":"23.009411,120.215634"},{"typeId":"1","typeName":"公有免費停車場","id":"110","code":"A01010","name":"成德停四免費公有停車場 ","zoneId":"4","zone":"北區","address":"北區海安路3段388巷、立賢路1段650巷口","largeCar":0,"car":0,"carDis":0,"carWoman":0,"carGreen":0,"moto":0,"motoDis":0,"largeCar_total":0,"car_total":58,"carDis_total":0,"carWoman_total":0,"carGreen_total":0,"moto_total":0,"motoDis_total":0,"chargeTime":"","chargeFee":"","update_time":"2018-06-15 08:45:09","lnglat":"23.008623,120.202959"},{"typeId":"1","typeName":"公有免費停車場","id":"111","code":"A01020","name":"賢北街臨時免費公有停車場 ","zoneId":"4","zone":"北區","address":"北區大興街、賢北街口","largeCar":0,"car":59,"carDis":0,"carWoman":0,"carGreen":0,"moto":0,"motoDis":0,"largeCar_total":0,"car_total":74,"carDis_total":0,"carWoman_total":0,"carGreen_total":0,"moto_total":0,"motoDis_total":0,"chargeTime":"","chargeFee":"","update_time":"2018-06-18 01:18:04","lnglat":"23.011481,120.192496"},{"typeId":"1","typeName":"公有免費停車場","id":"112","code":"A01030","name":"北成路38巷口臨時免費公有停車場 ","zoneId":"4","zone":"北區","address":"北區北成路、北成路38巷口(北成基督教會旁)","largeCar":0,"car":0,"carDis":0,"carWoman":0,"carGreen":0,"moto":0,"motoDis":0,"largeCar_total":0,"car_total":38,"carDis_total":0,"carWoman_total":0,"carGreen_total":0,"moto_total":0,"motoDis_total":0,"chargeTime":"","chargeFee":"","update_time":"2018-06-18 00:43:06","lnglat":"23.018824,120.210739"},{"typeId":"1","typeName":"公有免費停車場","id":"113","code":"A01040","name":"大興四自辦重劃區公有停車場 ","zoneId":"4","zone":"北區","address":"北區大興街76巷","largeCar":0,"car":29,"carDis":0,"carWoman":0,"carGreen":0,"moto":0,"motoDis":0,"largeCar_total":0,"car_total":30,"carDis_total":0,"carWoman_total":0,"carGreen_total":0,"moto_total":0,"motoDis_total":0,"chargeTime":"","chargeFee":"","update_time":"2018-06-18 01:18:04","lnglat":"23.013394,120.191746"},{"typeId":"2","typeName":"公有收費停車場","id":"114","code":"B00010","name":"文化中心廣場停車場","zoneId":"2","zone":"東區","address":"東區崇明路與崇明10街路口南側","largeCar":0,"car":47,"carDis":0,"carWoman":0,"carGreen":0,"moto":0,"motoDis":0,"largeCar_total":0,"car_total":51,"carDis_total":0,"carWoman_total":0,"carGreen_total":0,"moto_total":0,"motoDis_total":0,"chargeTime":"","chargeFee":"","update_time":"2018-06-18 01:18:04","lnglat":"22.975603,120.221026"},{"typeId":"3","typeName":"民營停車場","id":"115","code":"B00011","name":"成功大學大學路地下停車場","zoneId":"2","zone":"東區","address":"東區大學路1號","largeCar":0,"car":57,"carDis":0,"carWoman":0,"carGreen":0,"moto":0,"motoDis":0,"largeCar_total":0,"car_total":150,"carDis_total":0,"carWoman_total":0,"carGreen_total":0,"moto_total":0,"motoDis_total":0,"chargeTime":"","chargeFee":"","update_time":"2018-06-18 01:18:04","lnglat":"22.999852,120.215339"},{"typeId":"2","typeName":"公有收費停車場","id":"116","code":"B00012","name":"永康中華立體停車場","zoneId":"7","zone":"永康區","address":"永康區華興街77號","largeCar":0,"car":89,"carDis":0,"carWoman":0,"carGreen":0,"moto":0,"motoDis":0,"largeCar_total":0,"car_total":289,"carDis_total":0,"carWoman_total":0,"carGreen_total":0,"moto_total":0,"motoDis_total":0,"chargeTime":"","chargeFee":"","update_time":"2018-06-18 01:18:04","lnglat":"23.000737,120.238085"},{"typeId":"2","typeName":"公有收費停車場","id":"117","code":"B00013","name":"永康區復國里停(七)停車場","zoneId":"7","zone":"永康區","address":"臺南市永康區復國一路150巷26號邊","largeCar":0,"car":28,"carDis":0,"carWoman":0,"carGreen":0,"moto":0,"motoDis":0,"largeCar_total":0,"car_total":45,"carDis_total":0,"carWoman_total":0,"carGreen_total":0,"moto_total":0,"motoDis_total":0,"chargeTime":"","chargeFee":"","update_time":"2018-06-18 01:18:04","lnglat":"23.005160,120.247130"},{"typeId":"2","typeName":"公有收費停車場","id":"118","code":"B00014","name":"臺南市仁德區立體停車場","zoneId":"14","zone":"仁德區","address":"仁德區正義一街41號","largeCar":0,"car":172,"carDis":0,"carWoman":0,"carGreen":0,"moto":0,"motoDis":0,"largeCar_total":0,"car_total":294,"carDis_total":0,"carWoman_total":0,"carGreen_total":0,"moto_total":0,"motoDis_total":0,"chargeTime":"","chargeFee":"","update_time":"2018-06-18 01:18:04","lnglat":"22.972088,120.253223"},{"typeId":"2","typeName":"公有收費停車場","id":"119","code":"B00015","name":"新市國小地下停車場","zoneId":"36","zone":"新市區","address":"新市區中興路1號B1","largeCar":0,"car":32,"carDis":0,"carWoman":0,"carGreen":0,"moto":0,"motoDis":0,"largeCar_total":0,"car_total":161,"carDis_total":0,"carWoman_total":0,"carGreen_total":0,"moto_total":0,"motoDis_total":0,"chargeTime":"","chargeFee":"","update_time":"2018-06-18 01:18:05","lnglat":"23.078299,120.2953306"},{"typeId":"2","typeName":"公有收費停車場","id":"121","code":"A01061","name":"港濱停車場(第二區)","zoneId":"5","zone":"安平區","address":"安平區安億路與平豐路路口西北側","largeCar":0,"car":19,"carDis":0,"carWoman":0,"carGreen":0,"moto":0,"motoDis":0,"largeCar_total":0,"car_total":16,"carDis_total":0,"carWoman_total":0,"carGreen_total":0,"moto_total":0,"motoDis_total":0,"chargeTime":"","chargeFee":"","update_time":"2018-06-18 01:18:04","lnglat":"22.994967,120.163398"},{"typeId":"2","typeName":"公有收費停車場","id":"122","code":"A01071","name":"崇明停E6停車場","zoneId":"2","zone":"東區","address":"臺南市東區崇明路崇明國中南側","largeCar":0,"car":102,"carDis":0,"carWoman":0,"carGreen":0,"moto":0,"motoDis":0,"largeCar_total":0,"car_total":112,"carDis_total":0,"carWoman_total":0,"carGreen_total":0,"moto_total":0,"motoDis_total":0,"chargeTime":"","chargeFee":"","update_time":"2018-06-18 01:11:03","lnglat":"22.969779,120.225508"},{"typeId":"2","typeName":"公有收費停車場","id":"123","code":"A01081","name":"和平公園停車場","zoneId":"2","zone":"東區","address":"台南市東區文化路100號和平公園旁","largeCar":0,"car":17,"carDis":0,"carWoman":0,"carGreen":0,"moto":0,"motoDis":0,"largeCar_total":0,"car_total":83,"carDis_total":0,"carWoman_total":0,"carGreen_total":0,"moto_total":0,"motoDis_total":0,"chargeTime":"","chargeFee":"","update_time":"2018-06-18 01:11:00","lnglat":"22.977825,120.233083"},{"typeId":"2","typeName":"公有收費停車場","id":"124","code":"A01091","name":"德光公園停車場","zoneId":"2","zone":"東區","address":"台南市東區崇德一街德光公園東北側","largeCar":0,"car":19,"carDis":0,"carWoman":0,"carGreen":0,"moto":0,"motoDis":0,"largeCar_total":0,"car_total":20,"carDis_total":0,"carWoman_total":0,"carGreen_total":0,"moto_total":0,"motoDis_total":0,"chargeTime":"","chargeFee":"","update_time":"2018-06-18 01:11:04","lnglat":"22.979767,120.221511"},{"typeId":"2","typeName":"公有收費停車場","id":"125","code":"A01101","name":"崇明五街公兒E37停車場","zoneId":"2","zone":"東區","address":"台南市東區崇明路與崇明五街口西南側","largeCar":0,"car":22,"carDis":0,"carWoman":0,"carGreen":0,"moto":0,"motoDis":0,"largeCar_total":0,"car_total":27,"carDis_total":0,"carWoman_total":0,"carGreen_total":0,"moto_total":0,"motoDis_total":0,"chargeTime":"","chargeFee":"","update_time":"2018-06-18 01:11:01","lnglat":"22.9799409,120.2170133"},{"typeId":"2","typeName":"公有收費停車場","id":"127","code":"A01121","name":"西門路育賢停車場","zoneId":"4","zone":"北區","address":"台南市北區西門路四段341巷16號對面空地","largeCar":0,"car":14,"carDis":0,"carWoman":0,"carGreen":0,"moto":0,"motoDis":0,"largeCar_total":0,"car_total":29,"carDis_total":0,"carWoman_total":0,"carGreen_total":0,"moto_total":0,"motoDis_total":0,"chargeTime":"24小時","chargeFee":"10元/1小時，24小時最高100元","update_time":"2018-06-18 01:18:00","lnglat":"23.015194,120.209305"},{"typeId":"2","typeName":"公有收費停車場","id":"128","code":"B00016","name":"長榮崇明停車場","zoneId":"2","zone":"東區","address":"長榮路一段與長榮路一段15巷路口","largeCar":0,"car":15,"carDis":0,"carWoman":0,"carGreen":0,"moto":0,"motoDis":0,"largeCar_total":0,"car_total":16,"carDis_total":0,"carWoman_total":0,"carGreen_total":0,"moto_total":0,"motoDis_total":0,"chargeTime":"","chargeFee":"","update_time":"2018-06-18 01:17:19","lnglat":"22.982578,120.216159"},{"typeId":"2","typeName":"公有收費停車場","id":"129","code":"A01131","name":"大學路(社E2)停車場","zoneId":"2","zone":"東區","address":"台南市東區大學路西段53號西側","largeCar":0,"car":141,"carDis":0,"carWoman":0,"carGreen":0,"moto":0,"motoDis":0,"largeCar_total":0,"car_total":159,"carDis_total":0,"carWoman_total":0,"carGreen_total":0,"moto_total":0,"motoDis_total":0,"chargeTime":"營業時間(自行輸入)","chargeFee":"收費金額(自行輸入)","update_time":"2018-06-18 01:19:18","lnglat":"22.996415,120.216435"},{"typeId":"2","typeName":"公有收費停車場","id":"130","code":"A01141","name":"關聖里停車場","zoneId":"2","zone":"東區","address":"台南市東區裕和路39號旁","largeCar":0,"car":50,"carDis":0,"carWoman":0,"carGreen":0,"moto":0,"motoDis":0,"largeCar_total":0,"car_total":62,"carDis_total":0,"carWoman_total":0,"carGreen_total":0,"moto_total":0,"motoDis_total":0,"chargeTime":"","chargeFee":"","update_time":"2018-06-18 01:19:17","lnglat":"22.985299,120.240880"},{"typeId":"2","typeName":"公有收費停車場","id":"131","code":"A01221","name":"民族路停車場","zoneId":"2","zone":"東區","address":"台南市東區民族路一段47號旁","largeCar":0,"car":19,"carDis":0,"carWoman":0,"carGreen":0,"moto":0,"motoDis":0,"largeCar_total":0,"car_total":27,"carDis_total":0,"carWoman_total":0,"carGreen_total":0,"moto_total":0,"motoDis_total":0,"chargeTime":"24小時","chargeFee":"20元/1小時，24小時當日最高60","update_time":"2018-06-18 01:17:59","lnglat":"22.994291,120.214003"},{"typeId":"2","typeName":"公有收費停車場","id":"132","code":"A01231","name":"大學路(社E1)停車場","zoneId":"2","zone":"東區","address":"台南市東區大學路西段67號旁","largeCar":0,"car":54,"carDis":0,"carWoman":0,"carGreen":0,"moto":0,"motoDis":0,"largeCar_total":0,"car_total":57,"carDis_total":0,"carWoman_total":0,"carGreen_total":0,"moto_total":0,"motoDis_total":0,"chargeTime":"24小時","chargeFee":"20元/1小時，24小時當日最高60","update_time":"2018-06-18 01:18:00","lnglat":"22.996186,120.215532"}]